[
  {
    "name": "Bogot치",
    "type": "start",
    "lat": 4.6459,
    "lon": -74.0787,
    "description": "Punto de partida"
  },
  {
    "name": "Subia",
    "type": "etapa",
    "lat": 4.4709,
    "lon": -74.3834,
    "description": "Etapa 1"
  },
  {
    "name": "Melgar",
    "type": "foto",
    "lat": 4.247982,
    "lon": -74.7634,
    "image": "melgar.jpg",
    "text": "Toma entre Melgar y El Espinal donde me encuentro descansando; hoy fue una etapa de 95km..."
  },
  {
    "name": "Pinchada1",
    "type": "pinchazo",
    "lat": 3.7844,
    "lon": -75.0689,
    "image": "pinchada1.jpg",
    "text": "Pinchada a 1/2 de camino entre Salda침a y Natagaima..."
  },
  {
    "name": "El Espinal",
    "type": "foto",
    "lat": 4.1501,
    "lon": -74.891551,
    "image": "espinal.jpg",
    "text": "Parque Mitol칩gico de El Espinal por la ma침ana."
  },
  {
    "name": "Natagaima",
    "type": "etapa",
    "lat": 3.6266,
    "lon": -75.1002,
    "description": "Etapa 2"
  },
  {
    "name": "Pinchada2",
    "type": "pinchazo",
    "lat": 3.2398,
    "lon": -75.2441,
    "image": "pinchada2.jpg",
    "text": "Pinchada 2: Senza parole 游"
  },
  {
    "name": "Neiva",
    "type": "etapa",
    "lat": 2.9541,
    "lon": -75.3116,
    "description": "Etapa 3"
  },
  {
    "name": "Gigante",
    "type": "etapa",
    "lat": 2.386522,
    "lon": -75.5476,
    "description": "Etapa 4"
  },
  {
    "name": "Altamira",
    "type": "etapa",
    "lat": 2.0650,
    "lon": -75.7895,
    "description": "Etapa 5"
  },
  {
  "name": "Bruselas",
  "type": "etapa",
  "lat": 1.7714,
  "lon": -76.1703,
  "description": "Etapa 6"
  },
   {
    "name": "Pinchada4",
    "type": "pinchazo",
    "lat": 1.7239,
    "lon": -76.181274,
    "image": "pinchada4.jpg",
    "text": "4. Pinchazo; con ayuda y una buena bomba es m치s f치cil"
  }
]
