[
  {
    "name": "Bogot치",
    "type": "start",
    "lat": 4.6459,
    "lon": -74.0787,
    "description": "Punto de partida"
  },
  {
    "name": "Subia",
    "type": "etapa",
    "lat": 4.4709,
    "lon": -74.3834,
    "description": "Etapa 1"
  },
  {
    "name": "Melgar",
    "type": "foto",
    "lat": 4.247982,
    "lon": -74.7634,
    "image": "melgar.jpg",
    "text": "Toma entre Melgar y El Espinal donde me encuentro descansando; hoy fue una etapa de 95km..."
  },
  {
    "name": "Pinchada1",
    "type": "pinchazo",
    "lat": 3.7844,
    "lon": -75.0689,
    "image": "pinchada1.jpg",
    "text": "Pinchada a 1/2 de camino entre Salda침a y Natagaima..."
  },
  {
    "name": "El Espinal",
    "type": "foto",
    "lat": 4.1501,
    "lon": -74.891551,
    "image": "espinal.jpg",
    "text": "Parque Mitol칩gico de El Espinal por la ma침ana."
  },
  {
    "name": "Natagaima",
    "type": "etapa",
    "lat": 3.6266,
    "lon": -75.1002,
    "description": "Etapa 2"
  },
  {
    "name": "Pinchada2",
    "type": "pinchazo",
    "lat": 3.2398,
    "lon": -75.2441,
    "image": "pinchada2.jpg",
    "text": "Pinchada 2: Senza parole 游"
  },
  {
    "name": "Neiva",
    "type": "etapa",
    "lat": 2.9541,
    "lon": -75.3116,
    "description": "Etapa 3"
  },
   {
    "name": "Boa Contrictor",
    "type": "foto",
    "lat": 2.5137,
    "lon": -75.5310,
    "images":["boa.jpg"],
    "text": "Boa Constrictor Constrictor"
  },
  {
    "name": "Pinchada3",
    "type": "pinchazo",
    "lat": 2.4696,
    "lon": -75.5422,
    "image": "pinchada3.jpg",
    "text": "Pinchada 3: ? 游"
  },
  {
    "name": "Gigante",
    "type": "etapa",
    "lat": 2.386522,
    "lon": -75.5476,
    "description": "Etapa 4"
  },
  {
    "name": "Altamira",
    "type": "etapa",
    "lat": 2.0650,
    "lon": -75.7895,
    "description": "Etapa 5"
  },
  {
  "name": "Bruselas",
  "type": "etapa",
  "lat": 1.7714,
  "lon": -76.1703,
  "description": "Etapa 6"
  },
   {
    "name": "Pinchada4",
    "type": "pinchazo",
    "lat": 1.7239,
    "lon": -76.181274,
    "images": ["pinchada4.jpg"],
    "text": "4. Pinchazo; con ayuda y una buena bomba es m치s f치cil"
  },
   {
  "name": "Verdeyaco",
  "type": "etapa",
  "lat": 1.5026,
  "lon": -76.3575,
  "images": ["verdeyaco1.jpg", "verdeyaco2.jpg"],
  "description": "Etapa 8"
  },
  {
  "name": "San Juan de Villalobos",
  "type": "etapa",
  "lat": 1.4994,
  "lon": -76.3713,
  "description": "Etapa 7"
  },
  {
  "name": "Yunguillo",
  "type": "foto",
  "lat": 1.3649,
  "lon": -76.5172,
  "images": ["yunguillo1.jpg", "yunguillo2.jpg", "yunguillo3.jpg", "yunguillo4.jpg", "yunguillo5.jpg", "yunguillo6.jpg"],
  "text" : "Camino a Mocoa"
  },
  {
  "name": "Mocoa",
  "type": "etapa",
  "lat": 1.1487,
  "lon": -76.6482,
  "images":["mocoa1.jpg", "mocoa2.jpg", "mocoa3.jpg", "mocoa4.jpg", "mocoa5.jpg", "mocoa6.jpg"],
  "description": "Etapa 9"
  },
  {
  "name": "Sibundoy",
  "type": "etapa",
  "lat": 1.2043,
  "lon": -76.9190,
  "images":["sibundoy1.jpg", "sibundoy2.jpg", "sibundoy3.jpg", "sibundoy4.jpg", "sibundoy5.jpg", "sibundoy6.jpg", "sibundoy7.jpg", "sibundoy8.jpg", "sibundoy9.jpg", "sibundoy10.jpg"],
  "description": "Etapa 10"
  }
]
