[
  {
    "name": "Bogot치",
    "type": "start",
    "lat": 4.6459,
    "lon": -74.0787,
    "description": "Punto de partida",
    "distancia": 0.0,
    "kmDesdeEtapa": null
  },
  {
    "name": "Subia",
    "type": "etapa",
    "lat": 4.4709,
    "lon": -74.3834,
    "description": "Etapa 1",
    "fecha": "2025-03-30",
    "distancia": 50.42,
    "kmDesdeEtapa": 0.0
  },
  {
    "name": "Melgar",
    "type": "foto",
    "lat": 4.247982,
    "lon": -74.7634,
    "images": [
      "melgar.jpg"
    ],
    "text": "Toma entre Melgar y El Espinal donde me encuentro descansando; hoy fue una etapa de 95km...",
    "distancia": 132.87,
    "kmDesdeEtapa": 0.0
  },
  {
    "name": "Pinchada1",
    "type": "pinchazo",
    "lat": 3.7844,
    "lon": -75.0689,
    "image": "pinchada1.jpg",
    "text": "Pinchada a 1/2 de camino entre Salda침a y Natagaima...",
    "distancia": 210.19,
    "kmDesdeEtapa": 0.0
  },
  {
    "name": "El Espinal",
    "type": "etapa",
    "lat": 4.1501,
    "lon": -74.891551,
    "images": [
      "espinal.jpg"
    ],
    "text": "Parque Mitol칩gico de El Espinal por la ma침ana.",
    "description": "Etapa 2",
    "fecha": "2025-03-31",
    "distancia": 259.06,
    "kmDesdeEtapa": 0.0
  },
  {
    "name": "Natagaima",
    "type": "etapa",
    "lat": 3.6266,
    "lon": -75.1002,
    "description": "Etapa 3",
    "tiempo": "4:51",
    "fecha": "2025-04-01",
    "distancia": 326.44,
    "kmDesdeEtapa": 0.0
  },
  {
    "name": "Pinchada2",
    "type": "pinchazo",
    "lat": 3.2398,
    "lon": -75.2441,
    "images": [
      "pinchada2.jpg"
    ],
    "text": "Pinchada 2: Senza parole 游",
    "distancia": 376.72,
    "kmDesdeEtapa": 0.0
  },
  {
    "name": "Neiva",
    "type": "etapa",
    "lat": 2.9541,
    "lon": -75.3116,
    "description": "Etapa 4",
    "tiempo": "6:20",
    "distancia": 412.13,
    "kmDesdeEtapa": 0.0
  },
  {
    "name": "Boa Contrictor",
    "type": "foto",
    "lat": 2.5137,
    "lon": -75.531,
    "images": [
      "boa.jpg"
    ],
    "text": "Boa Constrictor Constrictor",
    "distancia": 485.48,
    "kmDesdeEtapa": 0.0
  },
  {
    "name": "Pinchada3",
    "type": "pinchazo",
    "lat": 2.4696,
    "lon": -75.5422,
    "images": [
      "pinchada3.jpg"
    ],
    "text": "Pinchada 3: ? 游",
    "distancia": 493.63,
    "kmDesdeEtapa": 0.0
  },
  {
    "name": "Hobo",
    "type": "etapa",
    "lat": 2.583,
    "lon": -75.4519,
    "description": "Etapa 5",
    "tiempo": "4:00",
    "fecha": "2025-04-03",
    "distancia": 516.24,
    "kmDesdeEtapa": 0.0
  },
  {
    "name": "Gigante",
    "type": "etapa",
    "lat": 2.386522,
    "lon": -75.5476,
    "description": "Etapa 6",
    "tiempo": "3:17",
    "fecha": "2025-04-04",
    "distancia": 550.46,
    "kmDesdeEtapa": 0.0
  },
  {
    "name": "Altamira",
    "type": "etapa",
    "lat": 2.065,
    "lon": -75.7895,
    "description": "Etapa 7",
    "tiempo": "4:13",
    "fecha": "2025-04-06",
    "distancia": 606.26,
    "kmDesdeEtapa": 0.0
  },
  {
    "name": "Bruselas",
    "type": "etapa",
    "lat": 1.7714,
    "lon": -76.1703,
    "description": "Etapa 8",
    "tiempo": "5:21",
    "fecha": "2025-04-07",
    "distancia": 669.25,
    "kmDesdeEtapa": 0.0
  },
  {
    "name": "Pinchada4",
    "type": "pinchazo",
    "lat": 1.7239,
    "lon": -76.181274,
    "images": [
      "pinchada4.jpg"
    ],
    "text": "4. Pinchazo; con ayuda y una buena bomba es m치s f치cil",
    "distancia": 675.47,
    "kmDesdeEtapa": 0.0
  },
  {
    "name": "San Juan de Villalobos",
    "type": "etapa",
    "lat": 1.4994,
    "lon": -76.3713,
    "description": "Etapa 9",
    "tiempo": "4:15",
    "fecha": "2025-04-08",
    "distancia": 717.46,
    "kmDesdeEtapa": 0.0
  },
  {
    "name": "Verdeyaco",
    "type": "etapa",
    "lat": 1.5026,
    "lon": -76.3575,
    "images": [
      "verdeyaco1.jpg",
      "verdeyaco2.jpg"
    ],
    "description": "Etapa 10",
    "tiempo": "2:23",
    "fecha": "2025-04-09",
    "distancia": 719.47,
    "kmDesdeEtapa": 0.0
  },
  {
    "name": "Yunguillo",
    "type": "foto",
    "lat": 1.3649,
    "lon": -76.5172,
    "images": [
      "yunguillo1.jpg",
      "yunguillo2.jpg",
      "yunguillo3.jpg",
      "yunguillo4.jpg",
      "yunguillo5.jpg",
      "yunguillo6.jpg"
    ],
    "text": "Camino a Mocoa",
    "distancia": 755.19,
    "kmDesdeEtapa": 0.0
  },
  {
    "name": "Mocoa",
    "type": "etapa",
    "lat": 1.1487,
    "lon": -76.6482,
    "images": [
      "mocoa1.jpg",
      "mocoa2.jpg",
      "mocoa3.jpg",
      "mocoa4.jpg",
      "mocoa5.jpg",
      "mocoa6.jpg"
    ],
    "description": "Etapa 11",
    "tiempo": "2:19",
    "fecha": "2025-04-10",
    "distancia": 788.66,
    "kmDesdeEtapa": 0.0
  },
  {
    "name": "Filo del Hambre",
    "type": "etapa",
    "lat": 1.0727,
    "lon": -76.7482,
    "images": [
      "filo1.jpg",
      "filo2.jpg"
    ],
    "description": "Etapa 13",
    "tiempo": "4:51",
    "fecha": "2025-04-12",
    "distancia": 823.13,
    "kmDesdeEtapa": 0.0
  },
  {
    "name": "Sibundoy",
    "type": "etapa",
    "lat": 1.2043,
    "lon": -76.919,
    "images": [
      "sibundoy1.jpg",
      "sibundoy2.jpg",
      "sibundoy3.jpg",
      "sibundoy4.jpg",
      "sibundoy5.jpg",
      "sibundoy6.jpg",
      "sibundoy7.jpg",
      "sibundoy8.jpg",
      "sibundoy9.jpg",
      "sibundoy10.jpg"
    ],
    "description": "Etapa 13",
    "tiempo": "4:54",
    "fecha": "2025-04-14",
    "distancia": 869.69,
    "kmDesdeEtapa": 0.0
  },
  {
    "name": "Colon",
    "type": "foto",
    "lat": 1.1908,
    "lon": -76.973,
    "images": [
      "colon1.jpg",
      "colon2.jpg"
    ],
    "text": "Una emPAnadaUSA en Col칩n, Putumayo",
    "distancia": 877.06,
    "kmDesdeEtapa": 0.0
  },
  {
    "name": "Santiago",
    "type": "etapa",
    "lat": 1.1479,
    "lon": -77.0039,
    "description": "Etapa 10",
    "tiempo": "1:11",
    "fecha": "2025-04-15",
    "distancia": 883.53,
    "kmDesdeEtapa": 0.0
  }
]